{"Charles Desouza": {"1": {"province": "Ontario", "city": "Toronto", "working": true, "title": "Senior Software Developer", "country": "Canada", "employer": "Careerify", "mapLocation": {"lat": 43.647856, "lng": -79.389542, "name": "Careerify Corporation", "address": "263 Adelaide Street West #503, Toronto, ON, Canada"}, "companyPrevious": "No", "jobPrevious": "No", "woring": true}, "4": {"province": "Ontario", "city": "Toronto", "working": true, "title": "Senior Software Developer", "country": "Canada", "employer": "Careerify", "companyPrevious": "No", "jobPrevious": "No", "woring": true}}, "Tom Sun": {"3": {"province": "Ontario", "city": "Kitchener", "working": true, "title": "BI/SQL Developer", "country": "Canada", "employer": "Open Text Corporation", "mapLocation": {"lat": 43.475988, "lng": -80.552204, "name": "OpenText Corporation", "address": "275 South Service Rd, Waterloo, ON, Canada"}, "companyPrevious": "No", "jobPrevious": "No", "woring": true}, "2": {"province": "Ontario", "city": "Cambridge", "working": true, "title": "IT Analyst", "country": "Canada", "employer": "Rockwell Automation", "mapLocation": {"lat": 43.359726, "lng": -80.295842, "name": "Rockwell Automation Inc", "address": "135 Dundas St, Cambridge, ON, Canada"}, "companyPrevious": "No", "jobPrevious": "No", "woring": true}, "5": {"province": "Quebec", "city": "Montreal", "working": true, "title": "UI Designer", "country": "Canada", "employer": "Jonar Systems", "companyPrevious": "No", "jobPrevious": "No", "woring": true}, "4": {"province": "Ontario", "city": "Toronto", "working": true, "title": "Professional Service Consultant", "country": "Canada", "employer": "NexJ Systems Inc.", "companyPrevious": "", "jobPrevious": "", "woring": true}, "6": {"province": "", "city": "San Francisco", "working": true, "title": "Software Engineer Intern", "country": "", "employer": "AppDirect", "companyPrevious": "", "jobPrevious": "", "woring": true}}, "Aftad Zaman": {"5": {"province": "Ontario", "city": "Pickering", "working": true, "title": "Systems Engineering", "country": "Canada", "employer": "Chemetics Inc. (a Jacobs Company)", "companyPrevious": "no", "jobPrevious": "no", "woring": true}}, "Sharon Leung": {"4": {"province": "Ontario", "city": "Toronto", "working": true, "title": "Application Support Analyst", "country": "Canada", "employer": "PWC", "companyPrevious": "No", "jobPrevious": "No", "woring": true}}, "Stephanie Cheng": {"2": {"province": "California", "city": "Redwood City", "working": true, "title": "R&D/Data Engineer", "country": "USA", "employer": "Reputation.com Inc.", "mapLocation": {"lat": 37.487996, "lng": -122.224319, "name": "Reputation.Com", "address": "1001 Marshall Street #2, Redwood City, CA, United States"}, "companyPrevious": "No", "jobPrevious": "No", "woring": true}, "4": {"province": "California", "city": "Redwood City", "working": true, "title": "Engineering Intern", "country": "USA", "employer": "Reputation.com Inc.\u00a0", "companyPrevious": "No", "jobPrevious": "No", "woring": true}}, "Richard Lesco": {"1": {"province": "Ontario", "city": "Waterloo", "working": true, "title": "SV&V Handheld", "country": "Canada", "employer": "RIM", "mapLocation": {"lat": 43.479674, "lng": -80.543148, "name": "Research In Motion", "address": "176 Columbia Street West, Waterloo, ON, Canada"}, "companyPrevious": "N/A", "jobPrevious": "N/A", "woring": true}, "3": {"province": "Ontario", "city": "Toronto", "working": true, "title": "CDMA Wireless Engineering Specialist", "country": "Canada", "employer": "Public Mobile", "mapLocation": {"lat": 43.651061, "lng": -79.397568, "name": "Public Mobile", "address": "222 Spadina Avenue #148, Toronto, ON, Canada"}, "companyPrevious": "No", "jobPrevious": "No", "woring": true}, "2": {"province": "Ontario", "city": "Waterloo", "working": true, "title": "SV&V IM", "country": "Canada", "employer": "RIM", "mapLocation": {"lat": 43.479674, "lng": -80.543148, "name": "Research In Motion", "address": "176 Columbia Street West, Waterloo, ON, Canada"}, "companyPrevious": "Yes", "jobPrevious": "No", "woring": true}, "5": {"province": "California", "city": "Sunnyvale", "working": true, "title": "LTE Coexistence Engineer", "country": "USA", "employer": "Broadcom", "companyPrevious": "No", "jobPrevious": "No", "woring": true}, "4": {"province": "Ontario", "city": "Ottawa", "working": true, "title": "Wireless System Research Engineering", "country": "Canada", "employer": "Industry Canada", "companyPrevious": "No", "jobPrevious": "No", "woring": true}}, "Ashutosh Syal": {"2": {"province": "Ontario", "city": "Toronto", "working": true, "title": "Systems Support Officer", "country": "Canada", "employer": "Office of the Public Guardian and Trustee", "mapLocation": {"lat": 43.653868, "lng": -79.387498, "name": "Children's Lawyer (Public Guardian)", "address": "393 University, Toronto, ON, Canada"}, "companyPrevious": "No", "jobPrevious": "No", "woring": true}, "4": {"province": "Ontario", "city": "Toronto", "working": true, "title": "Sr. Team Lead - Exotic Dancing", "country": "Canada", "employer": "Brass Rails", "mapLocation": {"lat": 43.669204, "lng": -79.38625, "name": "Brass Rail Tavern", "address": "701 Yonge, Toronto, ON, Canada"}, "companyPrevious": "Yes", "jobPrevious": "Yes", "woring": true}}, "Sebastian Hernandez": {"1": {"province": "Ontario", "city": "Guelph (the best)", "working": true, "title": "Engineering Assistant", "country": "Canada", "employer": "Agviro Inc.", "mapLocation": {"lat": 43.532406, "lng": -80.232939, "name": "Agviro Inc", "address": "367 Gordon, Guelph, ON, Canada"}, "companyPrevious": "No", "jobPrevious": "No", "woring": true}, "3": {"province": "Ontario", "city": "Brampton", "working": true, "title": "Administrative Assistant", "country": "Canada", "employer": "The Corporation of the City of Brampton", "mapLocation": {"lat": 43.6833333, "lng": -79.7666667, "name": "Brampton", "address": "Brampton, ON, Canada"}, "companyPrevious": "No", "jobPrevious": "No", "woring": true}, "2": {"province": "Ontario", "city": "Ottawa", "working": true, "title": "Human factors Engineering Engineering Assistant", "country": "Canada", "employer": "General Dynamics Canada", "mapLocation": {"lat": 45.328111, "lng": -75.825838, "name": "General Dynamics Canada", "address": "1941 Robertson Road, Ottawa, ON, Canada"}, "companyPrevious": "No", "jobPrevious": "No", "woring": true}, "4": {"province": "Ontario", "city": "Ottawa", "working": true, "title": "HF Research Assistant", "country": "Canada", "employer": "Transportation Canada", "companyPrevious": "No", "jobPrevious": "No", "woring": true}}, "Aisha Sial": {"1": {"province": "Ontario", "city": "Toronto", "working": true, "title": "Quality Assurance Analyst", "country": "Canada", "employer": "NexJ Systems Inc.", "mapLocation": {"lat": 43.744409, "lng": -79.406335, "name": "NexJ Systems Inc.", "address": "Suite 700, 10 York Mills Road, Toronto, ON, Canada"}, "companyPrevious": "No", "jobPrevious": "No", "woring": true}, "3": {"province": "Ontario", "city": "Toronto", "working": true, "title": "Software Developer", "country": "Canada", "employer": "FreshBooks", "mapLocation": {"lat": 43.642436, "lng": -79.374552, "name": "Kinetic Caf\u00e9", "address": "1 Yonge Street #934, Toronto, ON, Canada"}, "companyPrevious": "No", "jobPrevious": "No", "woring": true}, "2": {"province": "Ontario", "city": "Ottawa", "working": true, "title": "Systems Engineer", "country": "Canada", "employer": "General Dynamics Canada", "mapLocation": {"lat": 45.328111, "lng": -75.825838, "name": "General Dynamics Canada", "address": "1941 Robertson Road, Ottawa, ON, Canada"}, "companyPrevious": "No", "jobPrevious": "No", "woring": true}, "4": {"province": "Ontario", "city": "Ottawa", "working": true, "title": "Science and Technology Policy Analyst", "country": "Canada", "employer": "Environment Canada", "mapLocation": {"lat": 45.427719, "lng": -75.667555, "name": "Environment Canada", "address": "335 River Rd, Gloucester, ON, Canada"}, "companyPrevious": "No", "jobPrevious": "No", "woring": true}}, "Edward Li": {"5": {"province": "Ontario", "city": "Waterloo", "working": true, "title": "Research Assistant", "country": "Canada", "employer": "VIP Lab", "companyPrevious": "no", "jobPrevious": "no", "woring": true}, "4": {"province": "Ontario", "city": "Waterloo", "working": false, "title": "BI Developer", "country": "Canada", "employer": "Open Text", "companyPrevious": "", "jobPrevious": "", "woring": false}}, "Andy": {"1": {"province": "Ontario", "city": "Mississuaga", "working": true, "title": "IT Analyst", "country": "Canada", "employer": "TD Bank", "mapLocation": {"lat": 43.641486, "lng": -79.61541, "name": "Courtyard Mississauga-Airport Corporate Centre West", "address": "5050 Creekbank Road, Mississauga, ON, Canada"}, "companyPrevious": "No", "jobPrevious": "No", "woring": true}, "2": {"province": "Ontario", "city": "Toronto", "working": false, "title": "Network Engineer", "country": "Canada", "employer": "PriceWaterhouseCoopers", "mapLocation": {"lat": 43.643328, "lng": -79.381863, "name": "PricewaterhouseCoopers LLP", "address": "18 York Street, Toronto, ON, Canada"}, "companyPrevious": "No", "jobPrevious": "No", "woring": false}}, "Mark Wai": {"4": {"province": "Ontario", "city": "Toronto", "working": false, "title": "Jr Professional Services Consultant", "country": "Canada", "employer": "Nulogy", "companyPrevious": "", "jobPrevious": "", "woring": false}}, "Gary Lam": {"5": {"province": "Ontario", "city": "Markham", "working": true, "title": "Consultant", "country": "Canada", "employer": "CGI ", "companyPrevious": "No", "jobPrevious": "No", "woring": true}, "4": {"province": "Ontario", "city": "Toronto", "working": true, "title": "Infrastructure Support Co-ordinator", "country": "Canada", "employer": "NexJ Systems Inc.", "companyPrevious": "", "jobPrevious": "", "woring": true}}, "Supreet Sandhu": {"2": {"province": "Ontario", "city": "Toronto", "working": true, "title": "Systems Support Officer", "country": "Canada", "employer": "Office of the Public Guardian and Trustee", "mapLocation": {"lat": 43.653868, "lng": -79.387498, "name": "Children's Lawyer (Public Guardian)", "address": "393 University, Toronto, ON, Canada"}, "companyPrevious": "No", "jobPrevious": "No", "woring": true}}, "Vithuran B": {"5": {"province": "Ontatio", "city": "Toronto", "working": true, "title": "Software Developer", "country": "Canada", "employer": "Cisco Systems", "companyPrevious": "yes", "jobPrevious": "yes", "woring": true}}, "Harsh Dave": {"4": {"province": "Conneticut", "city": "Shelton", "working": false, "title": "Security Developer", "country": "USA", "employer": "Pitney Bowes", "companyPrevious": "", "jobPrevious": "", "woring": false}, "6": {"province": "Massachussets", "city": "Boston", "working": true, "title": "Designer", "country": "USA", "employer": "Microsoft", "companyPrevious": "No", "jobPrevious": "No", "woring": true}}, "Nahiyan Malik": {"1": {"province": "Ontario", "city": "Toronto", "working": true, "title": "Web and Mobile Developer", "country": "Canada", "employer": "Xtreme Mobility", "mapLocation": {"lat": 43.512131, "lng": -80.254132, "name": "Extreme PC", "address": "50 Dovercliffe, Guelph, ON, Canada"}, "companyPrevious": "No", "jobPrevious": "No", "woring": true}, "3": {"province": "Ontario", "city": "Toronto", "working": true, "title": "Software Engineering Intern", "country": "Canada", "employer": "Cisco Systems", "mapLocation": {"lat": 43.647208, "lng": -79.379381, "name": "Cisco Systems Inc", "address": "181 Bay, Toronto, ON, Canada"}, "companyPrevious": "No", "jobPrevious": "No", "woring": true}, "2": {"province": "Ontario", "city": "Waterloo", "working": true, "title": "BlackBerry Mobile Applications Developer", "country": "Canada", "employer": "Research in Motion", "mapLocation": {"lat": 43.479674, "lng": -80.543148, "name": "Research In Motion", "address": "176 Columbia Street West, Waterloo, ON, Canada"}, "companyPrevious": "No", "jobPrevious": "No", "woring": true}, "5": {"province": "Ontario", "city": "Toronto", "working": true, "title": "Software Developer", "country": "Canada", "employer": "Sunnybrook Research Institute", "companyPrevious": "No", "jobPrevious": "No", "woring": true}, "4": {"province": "Ontario", "city": "Mississauga", "working": false, "title": "R&D Engineering", "country": "Canada", "employer": "Baylis Medical", "companyPrevious": "", "jobPrevious": "", "woring": false}, "6": {"province": "Ontario", "city": "Toronto", "working": true, "title": "Bioinformatics Intern", "country": "Canada", "employer": "Ontario Institute for Cancer Research", "companyPrevious": "No", "jobPrevious": "No", "woring": true}}, "Andy Lee": {"3": {"province": "Ontario", "city": "Toronto", "working": false, "title": "Software Developer", "country": "Canada", "employer": "Xtreme Mobility", "mapLocation": {"lat": 43.512131, "lng": -80.254132, "name": "Extreme PC", "address": "50 Dovercliffe, Guelph, ON, Canada"}, "companyPrevious": "No", "jobPrevious": "No", "woring": false}, "5": {"province": "Ontario", "city": "Ottawa", "working": true, "title": "R&D Engineer", "country": "Canada", "employer": "Spartan Bioscience", "companyPrevious": "no", "jobPrevious": "no", "woring": true}, "4": {"province": "Ontario", "city": "Mississauga", "working": false, "title": "R&D Engineering", "country": "Canada", "employer": "Baylis Medical", "mapLocation": {"lat": 43.661036, "lng": -79.60013, "name": "Baylis Medical Co Inc", "address": "2645 Matheson Bl E, Cooksville, ON, Canada"}, "companyPrevious": "", "jobPrevious": "", "woring": false}}, "Ruchir Doshi": {"5": {"province": "British Columbia", "city": "Burnaby", "working": true, "title": "Business Systems Analyst", "country": "Canada", "employer": "Telus", "companyPrevious": "No", "jobPrevious": "No", "woring": true}, "4": {"province": "Ontario", "city": "Toronto", "working": false, "title": "MM Software Developer", "country": "Canada", "employer": "Bank of America Merrill Lynch", "companyPrevious": "No", "jobPrevious": "Probably not", "woring": false}}, "Eric Kyungwoo Sung": {"1": {"province": "Ontario", "city": "Toronto", "working": true, "title": "Technical Project Assistant", "country": "Canada", "employer": "Imason inc.", "mapLocation": {"lat": 43.647612, "lng": -79.391829, "name": "imason inc.", "address": "312 Adelaide Street West #801, Toronto, ON, Canada"}, "companyPrevious": "No", "jobPrevious": "No", "woring": true}, "3": {"province": "Ontario", "city": "Markham", "working": true, "title": "Hardware Engineer", "country": "Canada", "employer": "AMD", "mapLocation": {"lat": 43.83888, "lng": -79.379713, "name": "AMD", "address": "1 Commerce Valley Drive East, Markham, ON, Canada"}, "companyPrevious": "No", "jobPrevious": "No", "woring": true}, "2": {"province": "Ontario", "city": "Waterloo", "working": true, "title": "MVS Analyst", "country": "Canada", "employer": "Research in Motion", "mapLocation": {"lat": 43.479674, "lng": -80.543148, "name": "Research In Motion", "address": "176 Columbia Street West, Waterloo, ON, Canada"}, "companyPrevious": "No", "jobPrevious": "No", "woring": true}, "5": {"province": "California", "city": "Sunnyvale", "working": true, "title": "IC Design Engineering", "country": "USA", "employer": "Broadcom", "companyPrevious": "Yes", "jobPrevious": "No", "woring": true}, "4": {"province": "California", "city": "Sunnyvale", "working": true, "title": "Mobile Wi-Fi Engineer", "country": "USA", "employer": "Broadcom", "companyPrevious": "No", "jobPrevious": "No", "woring": true}}, "Jenn Ikert": {"4": {"province": "Ontario", "city": "Ottawa", "working": true, "title": "Research Assistant", "country": "Canada", "employer": "Environment Canada", "companyPrevious": "Yes", "jobPrevious": "Yes", "woring": true}, "6": {"province": "Quebec", "city": "Gatineau", "working": true, "title": "Asset Management", "country": "Canada", "employer": "Brookfield Renewable Energy", "companyPrevious": "No", "jobPrevious": "No", "woring": true}}, "Ram Sharma": {"5": {"province": "BC", "city": "Vancouver, BC", "working": true, "title": "Project Management Intern", "country": "CANADA", "employer": "TELUS", "companyPrevious": "No", "jobPrevious": "no", "woring": true}, "4": {"province": "California", "city": "San Diego", "working": false, "title": "Software Engineer", "country": "Canada", "employer": "Qualcomm", "companyPrevious": "", "jobPrevious": "", "woring": false}, "6": {"province": "New York", "city": "New York", "working": true, "title": "Trading Assistant", "country": "USA", "employer": "TD Securities", "companyPrevious": "No", "jobPrevious": "No", "woring": true}}, "Feyisola Agbaje": {"4": {"province": "Ontario", "city": "Toronto", "working": false, "title": "Process Specialist/BI Developer", "country": "Canada", "employer": "OLG", "companyPrevious": "No", "jobPrevious": "No", "woring": false}}, "Michelle Pugne": {"1": {"province": "Ontario", "city": "Toronto", "working": true, "title": "Web Developer", "country": "Canada", "employer": "Public Works and Government Services Canada", "mapLocation": {"lat": 43.763356, "lng": -79.412192, "name": "Public Works and Government Services Canada", "address": "4900 Yonge, Toronto, ON, Canada"}, "companyPrevious": "No", "jobPrevious": "No", "woring": true}, "3": {"province": "Ontario", "city": "Kitchener", "working": true, "title": "Product Designer", "country": "Canada", "employer": "Desire2Learn Inc.", "mapLocation": {"lat": 43.451174, "lng": -80.498012, "name": "Desire2Learn Incorporated", "address": "151 Charles Street West #400 Kitchener, ON N2G 1H6 Canada, Canada"}, "companyPrevious": "Yes", "jobPrevious": "Yes", "woring": true}, "2": {"province": "Ontario", "city": "Toronto", "working": true, "title": "QA Analyst", "country": "Canada", "employer": "Kobo Inc.", "mapLocation": {"lat": 43.637588, "lng": -79.423296, "name": "Kobo", "address": "135 Liberty Street #101, Toronto, ON, Canada"}, "companyPrevious": "No", "jobPrevious": "No", "woring": true}, "4": {"province": "Ontario", "city": "Kitchener", "working": true, "title": "Product Designer", "country": "Canada", "employer": "Desire2Learn", "companyPrevious": "", "jobPrevious": "", "woring": true}, "6": {"province": "Ontario", "city": "Kitchener", "working": true, "title": "User Experience Designer", "country": "Canada", "employer": "Communitech", "companyPrevious": "No", "jobPrevious": "No", "woring": true}}, "Chris Vandevelde": {"5": {"province": "California", "city": "San Francisco", "working": true, "title": "Android \"Jellybean\" Developer", "country": "USA", "employer": "Square", "companyPrevious": "Yes", "jobPrevious": "Yes", "woring": true}, "4": {"province": "California", "city": "San Fransisco", "working": true, "title": "Software Engineering Intern - Android", "country": "USA", "employer": "Square, Inc.", "companyPrevious": "No", "jobPrevious": "No", "woring": true}}, "Matthew Chong": {"4": {"province": "Ontario", "city": "Toronto", "working": true, "title": "Software Developer", "country": "Canada", "employer": "SGGG Portfolio Systems", "companyPrevious": "No", "jobPrevious": "No", "woring": true}}, "Hans Kao": {"4": {"province": "Ontario", "city": "Waterloo", "working": true, "title": "Electronics Designer Associate", "country": "Canada", "employer": "Research In Motion", "companyPrevious": "no", "jobPrevious": "no", "woring": true}}, "Marc-Andr\u00e9 Simard": {"1": {"province": "Ontario", "companyPrevious": "No", "working": true, "city": "Sudbury", "country": "Canada", "title": "Digital Media Specialist", "employer": "CommSequence, Inc.", "mapLocation": {"lat": 46.48999999999999, "lng": -81.00999999999999, "name": "Greater Sudbury", "address": "Greater Sudbury, ON, Canada"}, "jobPrevious": "No"}, "3": {"province": "Northern Region", "companyPrevious": "No", "working": true, "city": "Karaga", "country": "Ghana", "title": "Junior Fellow - Public Sector Agriculture", "employer": "Engineers Without Borders", "mapLocation": {"lat": 9.924999999999999, "lng": -0.4297222, "name": "Karaga", "address": "Karaga, Ghana"}, "jobPrevious": "No"}, "2": {"province": "Ontario", "companyPrevious": "No", "working": true, "city": "Toronto", "country": "Canada", "title": "Applications Developer ", "employer": "Environment Canada", "mapLocation": {"lat": 43.781503, "lng": -79.468551, "name": "Environment Canada", "address": "4905 Dufferin St, North York, ON, Canada"}, "jobPrevious": "No"}, "5": {"province": "Ontario", "companyPrevious": "No", "working": true, "city": "Toronto", "country": "Canada", "title": "Market Strategist", "employer": "Facebook", "jobPrevious": "No"}, "4": {"province": "Ontario", "companyPrevious": "No", "working": true, "city": "Brockville", "country": "Canada", "title": "Manufacturing Engineering", "employer": "Procter & Gamble", "jobPrevious": "No"}, "6": {"province": "Ontario", "companyPrevious": "No", "working": true, "city": "Toronto", "country": "Canada", "title": "Business Analyst", "employer": "McKinsey & Co. ", "jobPrevious": "No"}}, "Hojoon Lee": {"4": {"province": "Ontario", "city": "Toronto", "working": true, "title": "Performance and Capacity Co-op", "country": "Canada", "employer": "OLG", "companyPrevious": "No", "jobPrevious": "No", "woring": true}}, "Nachiket Yardi": {"4": {"province": "Ontario", "city": "St.Catherines", "working": true, "title": "Project management team", "country": "Canada", "employer": "PCL Constructors", "companyPrevious": "No", "jobPrevious": "No", "woring": true}, "6": {"province": "Ontario", "city": "Cambridge", "working": true, "title": "FAE - RX350h development", "country": "Canada", "employer": "Toyota", "companyPrevious": "Yes", "jobPrevious": "Little bit", "woring": true}}, "Matt Chong": {"5": {"province": "Ontario", "city": "Toronto", "working": true, "title": "Algorithmic Trading Developer", "country": "Canada", "employer": "Investment Technology Group", "companyPrevious": "no", "jobPrevious": "no", "woring": true}, "6": {"province": "Ontario", "city": "Toronto", "working": true, "title": "Software Dev - Automated Trading", "country": "Canada", "employer": "TD Securities", "companyPrevious": "No", "jobPrevious": "No", "woring": true}}, "Myles Tan": {"1": {"province": "Ontario", "city": "Toronto", "working": true, "title": "Quality Assurance Analyst", "country": "Canada", "employer": "NexJ Systems Inc.", "mapLocation": {"lat": 43.744409, "lng": -79.406335, "name": "NexJ Systems Inc.", "address": "Suite 700, 10 York Mills Road, Toronto, ON, Canada"}, "companyPrevious": "No", "jobPrevious": "No", "woring": true}, "3": {"province": "Ontario", "city": "Kitchener", "working": true, "title": "Product Designer", "country": "Canada", "employer": "Desire2Learn Inc.", "mapLocation": {"lat": 43.451174, "lng": -80.498012, "name": "Desire2Learn Incorporated", "address": "151 Charles Street West #400 Kitchener, ON N2G 1H6 Canada, Canada"}, "companyPrevious": "No", "jobPrevious": "No", "woring": true}, "2": {"province": "Ontario", "city": "Toronto", "working": true, "title": "Health Product Management Analyst", "country": "Canada", "employer": "NexJ Systems Inc.", "mapLocation": {"lat": 43.744409, "lng": -79.406335, "name": "NexJ Systems Inc.", "address": "Suite 700, 10 York Mills Road, Toronto, ON, Canada"}, "companyPrevious": "Yes", "jobPrevious": "No", "woring": true}, "5": {"province": "California", "city": "San Fransiscio", "working": true, "title": "iOS Developer", "country": "USA", "employer": "Azumio", "companyPrevious": "No", "jobPrevious": "No", "woring": true}, "4": {"province": "Ontario", "city": "Toronto", "working": true, "title": "Product Manager", "country": "Canada", "employer": "NexJ Systems Inc.", "companyPrevious": "Yes", "jobPrevious": "No", "woring": true}, "6": {"province": "Ontario", "city": "Ottawa", "working": true, "title": "Extreme Blue Technical Intern", "country": "Canada", "employer": "IBM", "companyPrevious": "No", "jobPrevious": "No", "woring": true}}, "Justin Lau": {"4": {"province": "Ontario", "city": "Markham", "working": false, "title": "Testing Tools & QA Process Analyst", "country": "Canada", "employer": "CGI Group", "companyPrevious": "No", "jobPrevious": "No", "woring": false}}, "Owen Coutts": {"1": {"province": "Ontario", "city": "Waterloo", "working": true, "title": "Project Manager", "country": "Canada", "employer": "RIM", "mapLocation": {"lat": 43.479674, "lng": -80.543148, "name": "Research In Motion", "address": "176 Columbia Street West, Waterloo, ON, Canada"}, "companyPrevious": "no", "jobPrevious": "no", "woring": true}, "3": {"province": "California", "city": "Mountain View", "working": true, "title": "Software Developer", "country": "United States", "employer": "Mozilla", "mapLocation": {"lat": 37.388076, "lng": -122.08275, "name": "Mozilla", "address": "650 Castro Street #300, Mountain View, CA, United States"}, "companyPrevious": "No", "jobPrevious": "no", "woring": true}, "2": {"province": "Ontario", "city": "Waterloo", "working": true, "title": "Software Developer", "country": "Canada", "employer": "Top Hat Monocle", "mapLocation": {"lat": 43.4772, "lng": -80.549072, "name": "Top Hat Monocle Corporation.", "address": "295 Hagey Boulevard #10, Waterloo, ON, Canada"}, "companyPrevious": "No", "jobPrevious": "no", "woring": true}, "5": {"province": "California", "city": "San Fransisco", "working": true, "title": "Software Engineering", "country": "USA", "employer": "Pinterest", "companyPrevious": "no", "jobPrevious": "no", "woring": true}, "4": {"province": "California", "city": "Mountain View", "working": true, "title": "Software Developer", "country": "USA", "employer": "Mozilla", "companyPrevious": "", "jobPrevious": "Yes", "woring": true}}, "Jan Kulinski": {"1": {"province": "Ontario", "city": "Markham", "working": true, "title": "", "country": "Canada", "employer": "MyPlanet Digital", "mapLocation": {"lat": 43.85207, "lng": -79.364598, "name": "Myplanet Digital", "address": "90 Centurian Drive, Markham, ON, Canada"}, "companyPrevious": "No", "jobPrevious": "No", "woring": true}, "5": {"province": "Ontario", "city": "Brampton/Waterloo", "working": true, "title": "CEO", "country": "Canada", "employer": "Studliness Corp.", "companyPrevious": "no", "jobPrevious": "no", "woring": true}, "4": {"province": "Ontario", "city": "Markham", "working": true, "title": "Web Dev", "country": "Canada", "employer": "MyPlanet Digital", "companyPrevious": "No", "jobPrevious": "No", "woring": true}, "6": {"province": "CA", "city": "Palo Alto", "working": true, "title": "Wierd iOS/Android developer", "country": "USA", "employer": "Circle", "companyPrevious": "No", "jobPrevious": "Kinda", "woring": true}}, "Sheldon Fernandes": {"3": {"province": "Ontario", "city": "Toronto", "working": true, "title": "Technical Specialist", "country": "Canada", "employer": "MTS Allstream", "mapLocation": {"lat": 43.645702, "lng": -79.387689, "name": "Allstream", "address": "200 Wellington Street West, Toronto, ON, Canada"}, "companyPrevious": "No", "jobPrevious": "No", "woring": true}, "2": {"province": "Ontario", "city": "Waterloo", "working": true, "title": "PDEng 25 Mentor", "country": "Canada", "employer": "University of Waterloo", "mapLocation": {"lat": 43.472989, "lng": -80.545274, "name": "University of Waterloo", "address": "200 University Avenue West, Waterloo, ON, Canada"}, "companyPrevious": "No", "jobPrevious": "No", "woring": true}, "5": {"province": "Various", "city": "Various", "working": true, "title": "Facility Assessment Engineer", "country": "Various", "employer": "Stantec", "companyPrevious": "No", "jobPrevious": "No", "woring": true}, "4": {"province": "Ontario", "city": "Ottawa", "working": true, "title": "Student Environmental Officer", "country": "Canada", "employer": "Environment Canada", "companyPrevious": "No", "jobPrevious": "No", "woring": true}, "6": {"province": "", "city": "Toronto / Geneva", "working": true, "title": "Junior Associate", "country": "Canada / Switzerland", "employer": "Earthmind", "companyPrevious": "No", "jobPrevious": "No", "woring": true}}, "Sisun Lee": {"5": {"province": "Ontario most of the time probably", "city": "Toronto", "working": true, "title": "Business Technology Analyst", "country": "Canada most of the time probably", "employer": "Deloitte Consulting", "companyPrevious": "no", "jobPrevious": "no", "woring": true}, "4": {"province": "Ontario", "city": "Toronto", "working": false, "title": "Market Strategist", "country": "Canada", "employer": "Facebook", "companyPrevious": "No", "jobPrevious": "No", "woring": false}, "6": {"province": "Ontario", "city": "Toronto", "working": true, "title": "Product Manager Intern", "country": "Canada", "employer": "Zynga", "companyPrevious": "No", "jobPrevious": "No", "woring": true}}, "Xunzhi Sun": {"1": {"province": "Ontario", "city": "Toronto", "working": true, "title": "Professional Services Consultant", "country": "Canada", "employer": "NexJ Systems Inc.", "mapLocation": {"lat": 43.744409, "lng": -79.406335, "name": "NexJ Systems Inc.", "address": "Suite 700, 10 York Mills Road, Toronto, ON, Canada"}, "companyPrevious": "Yes", "jobPrevious": "No", "woring": true}, "5": {"province": "Ontario", "city": "Waterloo", "working": true, "title": "Software Engineer", "country": "Canada", "employer": "VidYard", "companyPrevious": "No", "jobPrevious": "No", "woring": true}, "4": {"province": "Ontario", "city": "Toronto", "working": false, "title": "Consultant", "country": "Canada", "employer": "NexJ Systems Inc.", "companyPrevious": "", "jobPrevious": "", "woring": false}}, "Marc-Andr\u00e9 Simard": {"1": {"province": "Ontario", "city": "Sudbury", "companyPrevious": "No", "country": "Canada", "title": "Digital Media Specialist", "employer": "CommSequence, Inc.", "jobPrevious": "No", "woring": true}, "3": {"province": "Northern Region", "city": "Karaga", "companyPrevious": "No", "country": "Ghana", "title": "Junior Fellow - Public Sector Agriculture", "employer": "Engineers Without Borders", "jobPrevious": "No", "woring": true}, "2": {"province": "Ontario", "city": "Toronto", "companyPrevious": "No", "country": "Canada", "title": "Applications Developer ", "employer": "Environment Canada", "jobPrevious": "No", "woring": true}, "5": {"province": "Ontario", "city": "Toronto", "companyPrevious": "No", "country": "Canada", "title": "Market Strategist", "employer": "Facebook", "jobPrevious": "No", "woring": true}, "4": {"province": "Ontario", "city": "Brockville", "companyPrevious": "No", "country": "Canada", "title": "Manufacturing Engineering", "employer": "Procter & Gamble", "jobPrevious": "No", "woring": true}, "6": {"province": "Ontario", "city": "Toronto", "companyPrevious": "No", "country": "Canada", "title": "Business Analyst", "employer": "McKinsey & Co. ", "jobPrevious": "No", "woring": true}}, "Bhuvana Raghunathan": {"5": {"province": "Ontario", "city": "Markham", "working": true, "title": "Consultant", "country": "Canada", "employer": "CGI ", "companyPrevious": "No", "jobPrevious": "No", "woring": true}, "4": {"province": "Ontario", "city": "Toronto", "working": false, "title": "Network Engineer", "country": "Canada", "employer": "PWC", "mapLocation": {"lat": 43.643257, "lng": -79.38224, "name": "PwC", "address": "18 York Street, Toronto, ON, Canada"}, "companyPrevious": "", "jobPrevious": "", "woring": false}}, "Daxal": {"3": {"province": "Ontario", "city": "Toronto", "working": true, "title": "Middleware Infrastructure Engineering", "country": "Canada", "employer": "CIBC", "mapLocation": {"lat": 43.664147, "lng": -79.368114, "name": "CIBC", "address": "245 Carlton, Toronto, ON, Canada"}, "companyPrevious": "No", "jobPrevious": "No", "woring": true}, "2": {"province": "Ontario", "city": "Cambridge", "working": true, "title": "Software Engineering Intern", "country": "Canada", "employer": "Trustwave Pvt Ltd.", "mapLocation": {"lat": 43.3616211, "lng": -80.3144276, "name": "Cambridge", "address": "Cambridge, ON, Canada"}, "companyPrevious": "No", "jobPrevious": "No", "woring": true}}, "Anna Mach": {"1": {"province": "Ontario", "city": "Toronto", "working": true, "title": "Quality Assurance Analyst", "country": "Canada", "employer": "NexJ Systems Inc.", "mapLocation": {"lat": 43.744409, "lng": -79.406335, "name": "NexJ Systems Inc.", "address": "Suite 700, 10 York Mills Road, Toronto, ON, Canada"}, "companyPrevious": "Yes (see previous)", "jobPrevious": "Yes (worked Fall 09/Winter 10 here)", "woring": true}, "3": {"province": "Ontario", "city": "Toronto", "working": true, "title": "Application Developer (Finance)", "country": "Canada", "employer": "NexJ Systems Inc.", "mapLocation": {"lat": 43.744409, "lng": -79.406335, "name": "NexJ Systems Inc.", "address": "Suite 700, 10 York Mills Road, Toronto, ON, Canada"}, "companyPrevious": "Yes", "jobPrevious": "No", "woring": true}, "2": {"province": "Ontario", "city": "Toronto", "working": true, "title": "QA Analyst (Client/Automation)", "country": "Canada", "employer": "NexJ Systems Inc.", "mapLocation": {"lat": 43.744409, "lng": -79.406335, "name": "NexJ Systems Inc.", "address": "Suite 700, 10 York Mills Road, Toronto, ON, Canada"}, "companyPrevious": "Yes", "jobPrevious": "Yes", "woring": true}, "4": {"province": "Ontario", "city": "Waterloo", "working": true, "title": "Software Quality Engineer", "country": "Canada", "employer": "Kaleidescape", "mapLocation": {"lat": 43.506414, "lng": -80.546417, "name": "Kaleidescape", "address": "Kumpf Drive, Waterloo, ON, Canada"}, "companyPrevious": "No", "jobPrevious": "No", "woring": true}}, "Faizan Haque": {"4": {"province": "", "city": "Toulouse", "working": true, "title": "Research Assistant", "country": "France", "employer": "\u00c9cole Nationale de l'Aviation Civile", "companyPrevious": "No", "jobPrevious": "No", "woring": true}}, "Grace Ku": {"1": {"province": "Ontario", "city": "Toronto", "working": true, "title": "Programmer/Developer", "country": "Canada", "employer": "Rich Media", "mapLocation": {"lat": 43.737087, "lng": -79.343503, "name": "Rich Media", "address": "1090 Don Mills, North York, ON, Canada"}, "companyPrevious": "Yes", "jobPrevious": "Yes", "woring": true}, "3": {"province": "Ontario", "city": "Toronto", "working": true, "title": "Application Developer (Mobile Client Team)", "country": "Canada", "employer": "NexJ Systems Inc.", "mapLocation": {"lat": 43.744409, "lng": -79.406335, "name": "NexJ Systems Inc.", "address": "Suite 700, 10 York Mills Road, Toronto, ON, Canada"}, "companyPrevious": "No", "jobPrevious": "No", "woring": true}, "2": {"province": "Ontario", "city": "Toronto", "working": true, "title": "Programmer Analyst", "country": "Canada", "employer": "Rich Media", "mapLocation": {"lat": 43.737087, "lng": -79.343503, "name": "Rich Media", "address": "1090 Don Mills, North York, ON, Canada"}, "companyPrevious": "No", "jobPrevious": "No", "woring": true}, "5": {"province": "California", "city": "Mountain View", "working": true, "title": "Software Engineering Intern", "country": "USA", "employer": "WifiSLAM", "companyPrevious": "No", "jobPrevious": "No", "woring": true}, "4": {"province": "California", "city": "San Diego", "working": true, "title": "WebKit Dev Engineer", "country": "USA", "employer": "Qualcomm", "companyPrevious": "No", "jobPrevious": "No", "woring": true}, "6": {"province": "California", "city": "Menlo Park", "working": true, "title": "Software Engineer Intern", "country": "USA", "employer": "Facebook", "companyPrevious": "No", "jobPrevious": "No", "woring": true}}, "Hans Vermeulen": {"4": {"province": "California", "city": "Cupertino", "working": true, "title": "iPhone Quality Team Intern", "country": "USA", "employer": "Apple", "companyPrevious": "No", "jobPrevious": "No", "woring": true}}, "Daxal Desai": {"1": {"province": "Ontario", "city": "Ottawa", "working": true, "title": "Web developer / Network engineering", "country": "Canada", "employer": "CPCS Transcom Ltd.", "mapLocation": {"lat": 45.407053, "lng": -75.694344, "name": "CPCS Transcom Ltd", "address": "72 Chamberlain Avenue, Ottawa, ON, Canada"}, "companyPrevious": "Yes", "jobPrevious": "No", "woring": true}, "5": {"province": "Ontario", "city": "Toronto", "working": true, "title": "Technical Systems Analyst", "country": "Canada", "employer": "RBC Capital", "companyPrevious": "", "jobPrevious": "No", "woring": true}, "4": {"province": "Ontario", "city": "Toronto", "working": false, "title": "Trading Application Developer", "country": "Canada", "employer": "CIBC", "companyPrevious": "Yes", "jobPrevious": "No", "woring": false}, "6": {"province": "Ontario", "city": "Toronto", "working": true, "title": "Portfolio Analyst Intern", "country": "Canada", "employer": "CPP Investment Board", "companyPrevious": "No", "jobPrevious": "No", "woring": true}}, "Henry Poon": {"4": {"province": "Ontario", "city": "Missisauga", "working": true, "title": "Renewable Energy Building Systems Engineer", "country": "Canada", "employer": "PCL Constructors", "companyPrevious": "No", "jobPrevious": "No", "woring": true}}, "Rayomand Patel": {"5": {"province": "Ontario", "city": "Toronto", "working": true, "title": "Business Systems Analyst", "country": "Canada", "employer": "CIBC", "companyPrevious": "No", "jobPrevious": "No", "woring": true}, "4": {"province": "Ontario", "city": "Waterloo", "working": false, "title": "Network Engineer", "country": "Canada", "employer": "RIM", "companyPrevious": "", "jobPrevious": "", "woring": false}}, "Vithuran Balasubramaniam": {"4": {"province": "Ontario", "city": "Toronto", "working": false, "title": "Software Developer", "country": "Canada", "employer": "Cisco Systems", "companyPrevious": "", "jobPrevious": "", "woring": false}}, "Pratik Konnur": {"5": {"province": "Washington", "city": "Seattle", "working": true, "title": "Software Development Engineer", "country": "USA", "employer": "Amazon", "companyPrevious": "No", "jobPrevious": "No", "woring": true}, "4": {"province": "Ontario", "city": "Waterloo ", "working": false, "title": "Test Application Developer", "country": "Canada", "employer": "RIM", "companyPrevious": "", "jobPrevious": "", "woring": false}, "6": {"province": "Ontario", "city": "Toronto", "working": true, "title": "Software Developer", "country": "Canada", "employer": "Outside Intelligence", "companyPrevious": "No", "jobPrevious": "No", "woring": true}}, "Zhang-Yao Cheng": {"1": {"province": "Ontario", "city": "Ottawa", "working": true, "title": "Verification Specialist", "country": "Canada", "employer": "Agriculture and Agri-Food Canada", "mapLocation": {"lat": 45.364569, "lng": -75.733137, "name": "Agriculture and Agri-Food Canada", "address": "Ottawa, ON, Canada"}, "companyPrevious": "No", "jobPrevious": "n/a", "woring": true}, "3": {"province": "Ontario", "city": "Waterloo", "working": true, "title": "BlackBerry Mobile Application Developer", "country": "Canada", "employer": "RIM", "mapLocation": {"lat": 43.479674, "lng": -80.543148, "name": "Research In Motion", "address": "176 Columbia Street West, Waterloo, ON, Canada"}, "companyPrevious": "No", "jobPrevious": "No", "woring": true}, "2": {"province": "Ontario", "city": "Toronto", "working": true, "title": "Web Designer and Web Content Coordinator", "country": "Canada", "employer": "BMO", "mapLocation": {"lat": 43.632711, "lng": -79.418909, "name": "BMO Field", "address": "170 Princes' Boulevard, Toronto, ON, Canada"}, "companyPrevious": "No", "jobPrevious": "No", "woring": true}, "4": {"province": "Ontario", "city": "Toronto", "working": true, "title": "Software Developer", "country": "Canada", "employer": "LyricFind", "companyPrevious": "No", "jobPrevious": "No", "woring": true}}, "Alexander Huras": {"6": {"province": "California", "city": "Menlo Park", "working": true, "title": "Product Analytics", "country": "USA", "employer": "Facebook", "companyPrevious": "No", "jobPrevious": "No", "woring": true}}, "Ziyad Mir": {"1": {"province": "Ontario", "city": "Waterloo", "working": true, "title": "Project Coordinator", "country": "Canada", "employer": "Research In Motion", "mapLocation": {"lat": 43.479674, "lng": -80.543148, "name": "Research In Motion", "address": "176 Columbia Street West, Waterloo, ON, Canada"}, "companyPrevious": "No", "jobPrevious": "No", "woring": true}, "3": {"province": "California", "city": "San Diego", "working": true, "title": "Software Engineering Intern", "country": "USA", "employer": "Qualcomm", "mapLocation": {"lat": 32.895732, "lng": -117.195861, "name": "Qualcomm Incorporated", "address": "5775 Morehouse Drive, San Diego, CA, United States"}, "companyPrevious": "No", "jobPrevious": "No", "woring": true}, "2": {"province": "Colorado", "city": "Boulder", "working": true, "title": "Software Engineering Intern", "country": "USA", "employer": "Qualcomm ", "mapLocation": {"lat": 40.066068, "lng": -105.209491, "name": "QUALCOMM Inc", "address": "6180 Spine Road, Boulder, CO, United States"}, "companyPrevious": "Yes", "jobPrevious": "No", "woring": true}, "5": {"province": "Washington", "city": "Seattle", "working": true, "title": "Software Engineering Intern", "country": "USA", "employer": "Google", "companyPrevious": "No", "jobPrevious": "No", "woring": true}, "4": {"province": "California", "city": "Mountain View", "working": false, "title": "Software Engineer", "country": "USA", "employer": "LinkedIn", "companyPrevious": "", "jobPrevious": "", "woring": false}, "6": {"province": "California", "city": "Mountain View", "working": true, "title": "Associate Product Manager Intern", "country": "USA", "employer": "Google", "companyPrevious": "Yes", "jobPrevious": "No", "woring": true}}, "Vithu Jeya": {"5": {"province": "Australia", "city": "Australia", "working": true, "title": "Product", "country": "Australia", "employer": "SCAVENGER", "companyPrevious": "No", "jobPrevious": "No", "woring": true}}, "Matthew Ng": {"4": {"province": "California", "city": "Palo Alto", "working": false, "title": "Software Developer", "country": "Canada", "employer": "IMVU", "companyPrevious": "", "jobPrevious": "", "woring": false}}, "Adam Thagard": {"5": {"province": "California", "city": "San Jose", "working": true, "title": "Mechanical Engineer", "country": "USA", "employer": "Cypress Semiconductor", "companyPrevious": "No", "jobPrevious": "No", "woring": true}, "4": {"province": "California", "city": "Palo Alto", "working": true, "title": "inPulse smartwatch embedded developer", "country": "USA", "employer": "Allerta Inc.", "mapLocation": {"lat": 37.4418834, "lng": -122.1430195, "name": "Palo Alto", "address": "Palo Alto, CA, USA"}, "companyPrevious": "No", "jobPrevious": "No", "woring": true}}, "Henry": {"5": {"province": "Ontario", "city": "Toronto", "working": true, "title": "Mechanical & Electrical Engineer", "country": "Canada", "employer": "PCL", "companyPrevious": "Yes", "jobPrevious": "No", "woring": true}}, "Teddy Antony": {"5": {"province": "California", "city": "Palo Alto", "working": true, "title": "Process Engineer", "country": "USA", "employer": "Tesla Motors", "companyPrevious": "No", "jobPrevious": "No", "woring": true}, "4": {"province": "Ontario", "city": "Cambridge", "working": true, "title": "Manufacturing Engineering", "country": "Canada", "employer": "Toyota Motor Manufacturing Canada Inc", "companyPrevious": "No", "jobPrevious": "No", "woring": true}, "6": {"province": "California", "city": "Fremont", "working": true, "title": "Vehicle Engineering - Model X Development", "country": "USA", "employer": "Tesla Motors", "companyPrevious": "Yes", "jobPrevious": "No", "woring": true}}, "Cat Mercer": {"1": {"province": "Ontario", "city": "Toronto", "working": true, "title": "CPU Support Analyst", "country": "Canada", "employer": "TD Securities", "mapLocation": {"lat": 43.642175, "lng": -79.380933, "name": "TD Canada Trust", "address": "15 York Street, Toronto, ON, Canada"}, "companyPrevious": "No", "jobPrevious": "No", "woring": true}, "3": {"province": "Ontario", "city": "Toronto", "working": true, "title": "Security Analyst", "country": "Canada", "employer": "eHealth Ontario", "mapLocation": {"lat": 43.659663, "lng": -79.382353, "name": "Ehealth Ontario", "address": "415 Yonge, Toronto, ON, Canada"}, "companyPrevious": "No", "jobPrevious": "No", "woring": true}, "2": {"province": "Ontario", "city": "Toronto", "working": true, "title": "Systems Support Officer", "country": "Canada", "employer": "Office of the Public Guardian and Trustee", "mapLocation": {"lat": 43.653868, "lng": -79.387498, "name": "Children's Lawyer (Public Guardian)", "address": "393 University, Toronto, ON, Canada"}, "companyPrevious": "No", "jobPrevious": "No", "woring": true}, "5": {"province": "Ontario", "city": "Waterloo", "working": true, "title": "Research Software Developer", "country": "Canada", "employer": "University of Waterloo", "companyPrevious": "No", "jobPrevious": "No", "woring": true}, "4": {"province": "Ontario", "city": "Toronto", "working": true, "title": "Geomechanics Intern", "country": "Canada", "employer": "Rocscience", "companyPrevious": "No", "jobPrevious": "No", "woring": true}, "6": {"province": "Ontario", "city": "Waterloo", "working": true, "title": "Software Developer", "country": "Canada", "employer": "zynga", "companyPrevious": "No", "jobPrevious": "No", "woring": true}}, "Sara Greenberg": {"4": {"province": "Ontario", "city": "Toronto", "working": true, "title": "Human Factors Student Analyst", "country": "Canada", "employer": "University Health Network", "companyPrevious": "No", "jobPrevious": "No", "woring": true}}, "Kevin Zhang": {"4": {"province": "Ontario", "city": "Toronto", "working": false, "title": "Business Analyst", "country": "Canada", "employer": "PWC", "companyPrevious": "", "jobPrevious": "", "woring": false}}, "Jessica": {"4": {"province": "Ontario", "city": "Kitchener", "working": true, "title": "Business Analyst", "country": "Canada", "employer": "Manulife Financial", "companyPrevious": "No", "jobPrevious": "No", "woring": true}}, "Audrey Chung": {"4": {"province": "Ontario", "city": "Kanata", "working": true, "title": "Systems Engineer", "country": "Canada", "employer": "BelAir Networks", "mapLocation": {"lat": 45.348442, "lng": -75.924263, "name": "Belair Networks", "address": "603 March Rd, Kanata, ON, Canada"}, "companyPrevious": "Yes", "jobPrevious": "Yes", "woring": true}}, "Alex Huras": {"1": {"province": "Ontario", "city": "Toronto", "working": true, "title": "Technician?", "country": "Canada", "employer": "Polar Bear WSHP", "mapLocation": {"lat": 43.653226, "lng": -79.3831843, "name": "Toronto", "address": "Toronto, ON, Canada"}, "companyPrevious": "No", "jobPrevious": "No", "woring": true}, "3": {"province": "Ontario", "city": "Toronto", "working": true, "title": "Trading System Analyst", "country": "Canada", "employer": "ITG Canada Corp (TriAct)", "mapLocation": {"lat": 43.648044, "lng": -79.383455, "name": "ITG Canada Corporation", "address": "130 King W, Toronto, ON, Canada"}, "companyPrevious": "Yes", "jobPrevious": "No", "woring": true}, "2": {"province": "Ontario", "city": "Toronto", "working": true, "title": "Compliance Analyst", "country": "Canada", "employer": "ITG Canada Corp.", "mapLocation": {"lat": 43.648044, "lng": -79.383455, "name": "ITG Canada Corporation", "address": "130 King W, Toronto, ON, Canada"}, "companyPrevious": "No", "jobPrevious": "No", "woring": true}, "5": {"province": "New York", "city": "New York", "working": true, "title": "Data Engineering Intern", "country": "USA", "employer": "Magnetic Inc.", "companyPrevious": "no", "jobPrevious": "no.", "woring": true}, "4": {"province": "California", "city": "Palo Alto", "working": true, "title": "Systems Engineer", "country": "USA", "employer": "SkyGrid", "mapLocation": {"lat": 37.4418834, "lng": -122.1430195, "name": "Palo Alto", "address": "Palo Alto, CA, USA"}, "companyPrevious": "No", "jobPrevious": "No", "woring": true}}, "Senduran Indrakumar": {"5": {"province": "California", "city": "Mountain View", "working": true, "title": "Software Engineering Intern", "country": "USA", "employer": "LinkedIn", "companyPrevious": "no", "jobPrevious": "no", "woring": true}}, "Sarah Elliott": {"1": {"province": "Ontario", "city": "Toronto", "working": true, "title": "Junior Technical Analyst", "country": "Canada", "employer": "Ontario Teachers' Pension Plan", "mapLocation": {"lat": 43.780102, "lng": -79.416248, "name": "Ontario Teachers' Pension Plan (OTPP)", "address": "5650 Yonge Street #3, Toronto, ON, Canada"}, "companyPrevious": "No", "jobPrevious": "No", "woring": true}, "3": {"province": "California", "city": "Sunnyvale", "working": true, "title": "Software Developer", "country": "United States", "employer": "SkyGrid", "mapLocation": {"lat": 37.36883, "lng": -122.0363496, "name": "Sunnyvale", "address": "Sunnyvale, CA, USA"}, "companyPrevious": "No", "jobPrevious": "No", "woring": true}, "2": {"province": "Ontario", "city": "Toronto", "working": true, "title": "Technical Analyst", "country": "Canada", "employer": "Ontario Teachers' Pension Plan", "mapLocation": {"lat": 43.780102, "lng": -79.416248, "name": "Ontario Teachers' Pension Plan (OTPP)", "address": "5650 Yonge Street #3, Toronto, ON, Canada"}, "companyPrevious": "Yes", "jobPrevious": "Yes", "woring": true}, "5": {"province": "California", "city": "Menlo Park", "working": true, "title": "Human-Robot Interaction Intern", "country": "USA", "employer": "Willow Garage", "companyPrevious": "Yes", "jobPrevious": "Yes", "woring": true}, "4": {"province": "California", "city": "Palo Alto", "working": true, "title": "Human-Robot Interaction Intern", "country": "USA", "employer": "Willow Garage", "companyPrevious": "No", "jobPrevious": "No", "woring": true}, "6": {"province": "California", "city": "Mountain View", "working": true, "title": "Software Engineer Intern", "country": "USA", "employer": "Open Source Robotics Foundation", "companyPrevious": "No", "jobPrevious": "No", "woring": true}}, "Matt Ng": {"5": {"province": "???", "city": "Tokyo", "working": false, "title": "???", "country": "Japan", "employer": "CTI Engineering Co. Ltd", "companyPrevious": "no", "jobPrevious": "no", "woring": false}, "6": {"province": "Cali", "city": "Santa Clara", "working": true, "title": "Software Engineer Intern", "country": "Where do you think?", "employer": "NVIDIA", "companyPrevious": "No", "jobPrevious": "No", "woring": true}}, "Stephane Cheng": {"6": {"province": "California", "city": "Palo Alto", "working": true, "title": "Software Engineer Intern", "country": "USA", "employer": "E la Carte", "companyPrevious": "No", "jobPrevious": "No", "woring": true}}, "Brian Sinclair": {"1": {"province": "Ontario", "city": "Ottawa", "working": true, "title": "Systems Design Engineer", "country": "Canada", "employer": "General Dynamics Canada", "mapLocation": {"lat": 45.328111, "lng": -75.825838, "name": "General Dynamics Canada", "address": "1941 Robertson Road, Ottawa, ON, Canada"}, "companyPrevious": "No", "jobPrevious": "No", "woring": true}, "3": {"province": "Ontario", "city": "Toronto", "working": true, "title": "Software Developer", "country": "Canada", "employer": "Achievers (formerly, I Love Rewards Inc.)", "mapLocation": {"lat": 43.639032, "lng": -79.420693, "name": "I Love Rewards", "address": "99 Atlantic Ave, Toronto, ON, Canada"}, "companyPrevious": "Maybe", "jobPrevious": "No", "woring": true}, "2": {"province": "ontario", "city": "Waterloo", "working": true, "title": "Proposal Assistant", "country": "Canada", "employer": "OpenText", "mapLocation": {"lat": 43.475988, "lng": -80.552204, "name": "OpenText Corporation", "address": "275 South Service Rd, Waterloo, ON, Canada"}, "companyPrevious": "No", "jobPrevious": "No", "woring": true}, "4": {"province": "", "city": "", "working": false, "title": "Backpacker", "country": "Australia/New Zealand", "employer": "None", "mapLocation": {"lat": 48.424294, "lng": -123.365652, "name": "Pacesetter Travel", "address": "Suite 350-1070 Douglas St, Victoria, BC, Canada"}, "companyPrevious": "No", "jobPrevious": "No", "woring": false}, "6": {"province": "BC", "city": "Vancouver", "working": true, "title": "Business Technology Analyst", "country": "Canada", "employer": "Deloitte", "companyPrevious": "No", "jobPrevious": "No", "woring": true}}, "Veronica Vermeulen": {"4": {"province": "Nova Scotia", "city": "Truro", "working": false, "title": "TBD", "country": "Canada", "employer": "Agri Engineering Solutions Inc", "companyPrevious": "", "jobPrevious": "", "woring": false}, "6": {"province": "Ontario", "city": "Oakville", "working": true, "title": "Business Analyst", "country": "Canada", "employer": "Ford", "companyPrevious": "No", "jobPrevious": "No", "woring": true}}, "Herman Won": {"1": {"province": "Ontario", "city": "Toronto", "working": true, "title": "Production Engineer", "country": "Canada", "employer": "Apotex", "mapLocation": {"lat": 43.729476, "lng": -79.433901, "name": "Apotex Centre Jewish Home For The Aged And The Louis And Leah Posluns Centre For Stroke And Cognitio", "address": "3560 Bathurst Street, Toronto, ON, Canada"}, "companyPrevious": "No", "jobPrevious": "No", "woring": true}}, "Kai Umezawa": {"3": {"province": "California", "city": "Palo Alto", "working": true, "title": "Software Engineer", "country": "United States", "employer": "Facebook", "mapLocation": {"lat": 37.419474, "lng": -122.146643, "name": "Facebook", "address": "1050 Page Mill Road, Palo Alto, CA, United States"}, "companyPrevious": "No", "jobPrevious": "No", "woring": true}, "4": {"province": "California", "city": "Mountain View", "working": true, "title": "Software Engineer", "country": "USA", "employer": "Google", "companyPrevious": "No", "jobPrevious": "No", "woring": true}}, "Chi Wai Kenneth Ng": {"4": {"province": "California", "city": "Mountain View", "working": false, "title": "Software Engineer", "country": "USA", "employer": "Ooyala", "companyPrevious": "", "jobPrevious": "", "woring": false}, "6": {"province": "California", "city": "Mountain View", "working": true, "title": "Software Engineering Intern", "country": "USA", "employer": "Google", "companyPrevious": "No", "jobPrevious": "No", "woring": true}}, "Chris Menezes": {"5": {"province": "Ontario", "city": "Cambridge", "working": true, "title": "Software Engineer Intern", "country": "Canada", "employer": "exactEarth", "companyPrevious": "No", "jobPrevious": "No", "woring": true}, "4": {"province": "California", "city": "Palo Alto", "working": false, "title": "Systems Engineer", "country": "USA", "employer": "SkyGrid", "companyPrevious": "", "jobPrevious": "", "woring": false}}, "Karina Sils": {"1": {"province": "Ontario", "city": "Waterloo", "working": true, "title": "Software Developer", "country": "Canada", "employer": "AGFA Healthcare", "mapLocation": {"lat": 43.479266, "lng": -80.549909, "name": "Agfa", "address": "375 Hagey Boulevard, Waterloo, ON, Canada"}, "companyPrevious": "No", "jobPrevious": "No", "woring": true}, "3": {"province": "Ontario", "city": "Ottawa", "working": true, "title": "Ice Model Research Assistant", "country": "Canada", "employer": "Environment Canada", "mapLocation": {"lat": 45.427719, "lng": -75.667555, "name": "Environment Canada", "address": "335 River Rd, Gloucester, ON, Canada"}, "companyPrevious": "No", "jobPrevious": "No ", "woring": true}, "2": {"province": "Ontario", "city": "Kitchener", "working": true, "title": "Audio Visual Technician", "country": "Canada", "employer": "Christie Digital Systems", "mapLocation": {"lat": 43.462955, "lng": -80.475341, "name": "Christie Digital Systems Inc", "address": "809 Wellington N, Kitchener, ON, Canada"}, "companyPrevious": "No", "jobPrevious": "No", "woring": true}, "5": {"province": "Ontario", "city": "Waterloo", "working": true, "title": "Product Designer", "country": "Canada", "employer": "Desire2Learn", "companyPrevious": "No", "jobPrevious": "No", "woring": true}, "4": {"province": "Ontario", "city": "Waterloo", "working": true, "title": "Systems Analyst", "country": "Canada", "employer": "Manulife Financial", "companyPrevious": "No", "jobPrevious": "No", "woring": true}, "6": {"province": "Ontario", "city": "Kitchener", "working": true, "title": "Mobile Product Designer", "country": "Canada", "employer": "Desire2Learn", "companyPrevious": "Yes", "jobPrevious": "No", "woring": true}}, "Riley Donelson": {"1": {"province": "Ontario", "city": "Toronto", "working": true, "title": "Technical Project Assistant", "country": "Canada", "employer": "imason inc.", "mapLocation": {"lat": 43.647612, "lng": -79.391829, "name": "imason inc.", "address": "312 Adelaide Street West #801, Toronto, ON, Canada"}, "companyPrevious": "No", "jobPrevious": "No", "woring": true}, "3": {"province": "Ontario", "city": "Waterloo", "working": true, "title": "Project Administrator", "country": "Canada", "employer": "Economical Insurance Group", "mapLocation": {"lat": 43.454203, "lng": -80.528786, "name": "The Economical Insurance Group", "address": "111 Westmount Rd S, Waterloo, ON, Canada"}, "companyPrevious": "No", "jobPrevious": "No", "woring": true}, "2": {"province": "Ontario", "city": "Toronto", "working": true, "title": "Web and Mobile Developer", "country": "Canada", "employer": "Xtreme Mobility", "mapLocation": {"lat": 43.512131, "lng": -80.254132, "name": "Extreme PC", "address": "50 Dovercliffe, Guelph, ON, Canada"}, "companyPrevious": "No", "jobPrevious": "No", "woring": true}, "5": {"province": "Ontario", "city": "Kitchener", "working": true, "title": "User Experience Designer", "country": "Canada", "employer": "Communitech", "companyPrevious": "No", "jobPrevious": "No", "woring": true}, "4": {"province": "", "city": "", "working": false, "title": "World Traveller", "country": "", "employer": "Self", "companyPrevious": "", "jobPrevious": "", "woring": false}, "6": {"province": "California", "city": "Cupertino", "working": true, "title": "User Interface Designer", "country": "USA", "employer": "Apple", "companyPrevious": "No", "jobPrevious": "No", "woring": true}}, "Megan McNeil": {"4": {"province": "Ontario", "city": "Waterloo", "working": true, "title": "Web Designer/Development", "country": "Canada", "employer": "Teledyne DALSA", "companyPrevious": "No", "jobPrevious": "No ", "woring": true}}, "George Cao": {"1": {"province": "", "city": "Beijing", "working": true, "title": "C++ developer/lab assistant", "country": "China.P.R", "employer": "TsingHua University", "mapLocation": {"lat": 40.001244, "lng": 116.328484, "name": "Tsinghua university", "address": "\u6e05\u534e\u5927\u5b66, Haidian, Beijing, China"}, "companyPrevious": "No", "jobPrevious": "No", "woring": true}, "3": {"province": "Ontario", "city": "Toronto", "working": true, "title": "Applications Developer ", "country": "Canada", "employer": "CIBC", "mapLocation": {"lat": 43.664147, "lng": -79.368114, "name": "CIBC", "address": "245 Carlton, Toronto, ON, Canada"}, "companyPrevious": "Yes", "jobPrevious": "Yes", "woring": true}, "2": {"province": "Ontario", "city": "Toronto", "working": true, "title": "Applications Developer ", "country": "Canada", "employer": "CIBC", "mapLocation": {"lat": 43.664147, "lng": -79.368114, "name": "CIBC", "address": "245 Carlton, Toronto, ON, Canada"}, "companyPrevious": "No", "jobPrevious": "No", "woring": true}, "4": {"province": "Ontario", "city": "Waterloo", "working": false, "title": "Medical Imaging Testing Specialist", "country": "Canada", "employer": "Agfa HealthCare", "companyPrevious": "No", "jobPrevious": "No", "woring": false}}, "Julia Chernushevich": {"3": {"province": "Ontario", "city": "Oshawa", "working": true, "title": "Electrical Technologies", "country": "Canada", "employer": "General Motors", "mapLocation": {"lat": 43.89687, "lng": -78.85932, "name": "General Motors Centre", "address": "99 Athol Street East, Oshawa, ON, Canada"}, "companyPrevious": "No", "jobPrevious": "No", "woring": true}, "4": {"province": "Ontario", "city": "Waterloo", "working": true, "title": "Hardware Engineer - LCD & Illumination", "country": "Canada", "employer": "RIM", "companyPrevious": "No", "jobPrevious": "No", "woring": true}}, "Chi Wai Kenneth \"Chiwang\" NG": {"5": {"province": "California", "city": "Menlo Park", "working": true, "title": "Software Engineering Intern", "country": "USA", "employer": "Facebook", "companyPrevious": "No", "jobPrevious": "No", "woring": true}}, "Sadie Hewgill": {"5": {"province": "Ontario", "city": "Ottawa", "working": true, "title": "", "country": "Canada", "employer": "Halsall", "companyPrevious": "no", "jobPrevious": "no", "woring": true}, "4": {"province": "", "city": "Khartoum", "working": false, "title": "Appropriate Technology Designer", "country": "Sudan", "employer": "NileCAT", "companyPrevious": "No", "jobPrevious": "No", "woring": false}}, "Scott Neil": {"1": {"province": "Ontario", "city": "Markham", "working": true, "title": "Project Control Officer", "country": "Canada", "employer": "CGI Group Inc.", "mapLocation": {"lat": 43.81896, "lng": -79.52742, "name": "Cgi Group Inc", "address": "51-B Caldari Rd, Concord, ON, Canada"}, "companyPrevious": "No", "jobPrevious": "No", "woring": true}, "3": {"province": "Ontario", "city": "Oakville", "working": false, "title": "Software Developer", "country": "Canada", "employer": "Skura Corp", "mapLocation": {"lat": 43.504078, "lng": -79.67121, "name": "Skura Corporation", "address": "2275 Upper Middle Rd E, Clarkson, ON, Canada"}, "companyPrevious": "No", "jobPrevious": "No", "woring": false}, "2": {"province": "Ontario", "city": "Waterloo", "working": true, "title": "Software Test engineering", "country": "Canada", "employer": "Bioinformatics Solutions Inc.", "mapLocation": {"lat": 43.488762, "lng": -80.532712, "name": "Bioinformatics Solutions Inc.", "address": "470 Weber Street North #204, Waterloo, ON, Canada"}, "companyPrevious": "No", "jobPrevious": "No", "woring": true}, "5": {"province": "Ontario", "city": "Toronto", "working": true, "title": "Investment Analyst/Assistant", "country": "Canada", "employer": "Periscope Captial", "companyPrevious": "No", "jobPrevious": "No", "woring": true}, "4": {"province": "Ontario", "city": "Toronto", "working": true, "title": "FI/MM Trading Analyst", "country": "Canada", "employer": "BMO Capital Markets", "companyPrevious": "No", "jobPrevious": "No", "woring": true}, "6": {"province": "California", "city": "Menlo Park", "working": true, "title": "Product Analytics", "country": "USA", "employer": "Facebook", "companyPrevious": "No", "jobPrevious": "No", "woring": true}}, "Ayman Nadeem": {"1": {"province": "Ontario", "city": "Burlington", "working": false, "title": "Product Manager", "country": "Canada", "employer": "Awareness, Inc.", "mapLocation": {"lat": 43.382217, "lng": -79.768633, "name": "Awareness Inc.", "address": "5050 South Service Road, Burlington, ON, Canada"}, "companyPrevious": "No", "jobPrevious": "No", "woring": false}, "5": {"province": "washington", "city": "seattle", "working": true, "title": "Product Management", "country": "USA", "employer": "Microsoft Corporation", "companyPrevious": "yes", "jobPrevious": "same hustle, different team", "woring": true}, "4": {"province": "Washington", "city": "Seattle", "working": true, "title": "Program Manager", "country": "USA", "employer": "Microsoft Corporation", "mapLocation": {"lat": 47.639608, "lng": -122.128179, "name": "Microsoft Corporation", "address": "1 157th Avenue Northeast, Redmond, WA, United States"}, "companyPrevious": "No", "jobPrevious": "No", "woring": true}}, "Kai": {"5": {"province": "", "city": "", "working": false, "title": "Intern", "country": "", "employer": "WiFast", "companyPrevious": "", "jobPrevious": "", "woring": false}}}